[
  {
    "industry_id": "IND001",
    "name": "Bhilai Steel Plant",
    "type": "Steel",
    "lat": 21.208,
    "lng": 81.376,
    "station_id": "ST001",
    "high_risk": true,
    "region": "Bhilai-Durg, Chhattisgarh"
  },
  {
    "industry_id": "IND002",
    "name": "CSID\u0421 Industrial Growth Center",
    "type": "Mixed Industrial",
    "lat": 21.2514,
    "lng": 81.28,
    "station_id": "ST002",
    "high_risk": false,
    "region": "Bhilai-Durg, Chhattisgarh"
  },
  {
    "industry_id": "IND003",
    "name": "Durg Thermal Plant",
    "type": "Power",
    "lat": 21.19,
    "lng": 81.29,
    "station_id": "ST002",
    "high_risk": true,
    "region": "Bhilai-Durg, Chhattisgarh"
  },
  {
    "industry_id": "IND004",
    "name": "SECL Gevra Coal Mine",
    "type": "Mining",
    "lat": 22.2167,
    "lng": 82.3833,
    "station_id": "ST005",
    "high_risk": true,
    "region": "Bilaspur, Chhattisgarh"
  },
  {
    "industry_id": "IND005",
    "name": "Bilaspur Thermal Power Station",
    "type": "Power",
    "lat": 22.12,
    "lng": 82.18,
    "station_id": "ST005",
    "high_risk": true,
    "region": "Bilaspur, Chhattisgarh"
  },
  {
    "industry_id": "IND006",
    "name": "CECB Industrial Area Bilaspur",
    "type": "Mixed Industrial",
    "lat": 22.09,
    "lng": 82.15,
    "station_id": "ST005",
    "high_risk": false,
    "region": "Bilaspur, Chhattisgarh"
  },
  {
    "industry_id": "IND007",
    "name": "NTPC Korba Super Thermal Power Station",
    "type": "Thermal Power",
    "lat": 22.3456,
    "lng": 82.7123,
    "station_id": "ST006",
    "high_risk": true,
    "capacity_mw": 2600,
    "primary_pollutants": [
      "SO2",
      "NOx",
      "PM10"
    ],
    "region": "Korba, Chhattisgarh"
  },
  {
    "industry_id": "IND008",
    "name": "CSEB Korba West Power House",
    "type": "Thermal Power",
    "lat": 22.36,
    "lng": 82.705,
    "station_id": "ST007",
    "high_risk": true,
    "capacity_mw": 840,
    "primary_pollutants": [
      "SO2",
      "NOx",
      "PM10"
    ],
    "region": "Korba, Chhattisgarh"
  },
  {
    "industry_id": "IND009",
    "name": "BALCO Aluminium Smelter, Korba",
    "type": "Aluminium",
    "lat": 22.38,
    "lng": 82.74,
    "station_id": "ST008",
    "high_risk": true,
    "capacity_mw": null,
    "primary_pollutants": [
      "SO2",
      "PM10",
      "PM2.5"
    ],
    "region": "Korba, Chhattisgarh"
  },
  {
    "industry_id": "IND010",
    "name": "SECL Gevra Open Cast Coal Mine",
    "type": "Coal Mining",
    "lat": 22.42,
    "lng": 82.65,
    "station_id": "ST006",
    "high_risk": true,
    "capacity_mw": null,
    "primary_pollutants": [
      "PM10",
      "PM2.5",
      "NOx"
    ],
    "region": "Korba, Chhattisgarh"
  },
  {
    "industry_id": "IND011",
    "name": "Lanco Amarkantak Thermal Power Plant",
    "type": "Thermal Power",
    "lat": 22.33,
    "lng": 82.68,
    "station_id": "ST009",
    "high_risk": true,
    "capacity_mw": 1320,
    "primary_pollutants": [
      "SO2",
      "NOx",
      "PM10"
    ],
    "region": "Korba, Chhattisgarh"
  }
]